name,area,address,lat,lon,notes
Bangalore One - Shivajinagar,Central,"Karnataka One Centre, Shivajinagar (sample PoC location)",12.9850,77.6033,Sample coordinates for PoC; replace with official list.
Bangalore One - Koramangala,South East,"Koramangala area counter (sample)",12.9352,77.6245,Sample for PoC
Bangalore One - Jayanagar,South,"Jayanagar 4th Block (sample)",12.9250,77.5830,Sample for PoC
Bangalore One - Rajajinagar,West,"Rajajinagar (sample)",12.9915,77.5544,Sample for PoC
Bangalore One - Whitefield,East,"Whitefield (sample)",12.9698,77.7500,Sample for PoC
Bangalore One - Yelahanka,North,"Yelahanka (sample)",13.1007,77.5963,Sample for PoC
Bangalore One - Indiranagar,East,"Indiranagar (sample)",12.9719,77.6411,Sample for PoC
Bangalore One - Vijayanagar,West,"Vijayanagar (sample)",12.9710,77.5370,Sample for PoC
